,City,Country,Lat,Lng,Max Temperature,Humidity,Wind speed,Date,Cloudiness
0,rikitea,PF,-23.1203,-134.9692,27.12,75,4.22,1615010395,37
1,chichester,GB,50.8367,-0.78,0.53,90,0.45,1615010395,5
2,cooma,AU,-36.2333,149.1333,20,28,3.6,1615010395,0
3,qaanaaq,GL,77.484,-69.3632,-26.77,67,2.75,1615010395,0
4,puerto carreno,CO,6.189,-67.4859,26.13,80,2.24,1615010395,94
5,hobart,AU,-42.8794,147.3294,16.71,55,7.72,1615010244,0
6,tuktoyaktuk,CA,69.4541,-133.0374,-24,77,3.6,1615010396,1
7,east london,ZA,-33.0153,27.9116,20,83,3.6,1615010396,0
8,ribeira grande,PT,38.5167,-28.7,15.42,84,6.05,1615010396,86
9,tahta,EG,26.7693,31.5021,9.47,53,2.06,1615010396,0
10,jamuria,IN,23.7,87.0833,30,51,3.09,1615010396,4
11,busselton,AU,-33.65,115.3333,24.79,72,1.34,1615010396,66
12,pevek,RU,69.7008,170.3133,-23.79,91,3.74,1615010396,100
13,gat,IL,31.61,34.7642,11.11,43,1.34,1615010396,0
14,coahuayana,MX,18.7333,-103.6833,19.62,87,0.97,1615010397,2
15,ushuaia,AR,-54.8,-68.3,11,66,1.54,1615010397,75
16,husavik,IS,66.0449,-17.3389,1,86,4.18,1615010397,90
17,bluff,NZ,-46.6,168.3333,17.22,58,3.58,1615010397,77
18,port alfred,ZA,-33.5906,26.891,22.22,81,1.34,1615010397,0
19,alyangula,AU,-13.8483,136.4192,32,66,4.12,1615010397,11
20,punta arenas,CL,-53.15,-70.9167,11.83,82,2.57,1615010397,90
21,marcona,AU,-41.0667,145.9167,16.92,59,5.36,1615010397,7
22,belushya guba,RU,68.0531,39.5131,-14.76,93,5.38,1615010398,99
23,burnie,TL,-8.9266,125.4092,22.39,89,0.86,1615010398,26
24,ostrovnoy,CG,-4.1997,12.6739,22.95,96,1.23,1615010398,72
25,airai,RU,50.6789,156.125,-1.97,96,5.48,1615010398,100
26,loubomo,KZ,44.83,78.8239,2.81,78,2.33,1615010398,12
27,severo-kurilsk,BR,-30.1811,-50.2056,21.04,85,4.32,1615010398,7
28,tekeli,US,71.2906,-156.7887,-22,64,5.14,1615010399,1
29,cidreira,RU,54.7183,135.315,-18.89,82,11.34,1615010399,66
30,barrow,KI,3.0707,172.7902,27.29,76,5.25,1615010399,34
31,chumikan,ID,-1.2667,104.0833,30.96,63,2.38,1615010399,58
32,tumannyy,RU,65.85,74.4859,-14.31,95,0.68,1615010399,95
33,butaritari,IN,22.4108,88.5094,31,51,1.54,1615010400,41
34,simpang,JP,28.3667,129.4833,21,64,3.09,1615010400,75
35,pangody,RU,63.05,179.3167,-28.4,87,1.43,1615010401,16
36,raypur,ZA,-34.5322,20.0403,14,94,1.03,1615010402,0
37,naze,US,34.6391,-120.4579,7.71,93,3.18,1615010403,75
38,beringovskiy,GL,69.2167,-51.1,-7,86,5.66,1615010403,90
39,mys shmidta,RU,71.9167,114.0833,-30.59,83,4.74,1615010405,23
40,bredasdorp,CA,62.456,-114.3525,-8,93,3.6,1615010406,75
41,lompoc,US,39.0062,-77.4286,0.3,51,3.6,1615010397,1
42,ilulissat,NZ,-46.1927,168.8643,16.67,59,3.13,1615010411,83
43,saskylakh,CL,-37.6167,-73.65,12.91,92,3.11,1615010412,49
44,yellowknife,GL,65.6145,-37.6368,-3,93,15.95,1615010413,90
45,sterling,ZA,-34.4187,19.2345,18.33,90,1.96,1615010415,0
46,mataura,IN,23.4833,84.2667,27.65,14,3.63,1615010415,15
47,lebu,US,42.097,-79.2353,-2.94,97,6.53,1615010415,90
48,tasiilaq,MR,20.5022,-10.0711,17.45,26,4.89,1615010416,0
49,hermanus,MU,-20.4081,57.7,28,74,5.14,1615010416,40
50,netarhat,UA,47.0758,32.8052,1.84,93,10,1615010417,90
51,jamestown,MX,20.5083,-86.9458,23.94,78,3.6,1615010409,75
52,adrar,GL,72.7868,-56.1549,-26.06,87,6.16,1615010417,100
53,mahebourg,IN,14.4833,79.9833,33,29,2.5,1615010418,0
54,snihurivka,AU,-42.7826,147.0587,16.83,44,0.89,1615010418,81
55,cozumel,RE,-21.3585,55.7679,26.98,62,3.09,1615010419,0
56,taolanaro,US,57.79,-152.4072,-1,64,11.32,1615010189,90
57,upernavik,ZA,-33.9258,18.4232,16.33,88,3.09,1615010419,0
58,kovur,GL,60.7167,-46.0333,6,36,5.14,1615010420,90
59,new norfolk,NU,-19.0595,-169.9187,28,78,2.06,1615010420,90
60,saint-philippe,PF,-16.4833,-151.75,28.14,67,1.46,1615010421,82
61,kodiak,SS,4.7717,33.5903,31.83,30,6.34,1615010421,96
62,cape town,ZA,-34.0033,24.7314,18.33,85,1.34,1615010421,0
63,qaqortoq,UY,-33.6971,-53.4616,18.76,77,2.84,1615010421,100
64,alofi,SJ,78.2186,15.6401,-14,66,10.29,1615010422,20
65,faanui,NC,-20.2333,164.0167,27.33,71,13.64,1615010422,100
66,kapoeta,AU,-35.7167,150.1833,19.61,65,1.79,1615010418,3
67,kruisfontein,GL,60.9167,-46.05,6,36,5.14,1615010423,90
68,chuy,AR,-38.0023,-57.5575,17.17,72,4.12,1615010423,75
69,longyearbyen,RU,64.75,177.4833,-25,70,2,1615010423,0
70,umm durman,NA,-26.6481,15.1594,22.05,39,4.25,1615010423,0
71,poum,US,57.0531,-135.33,3,87,4.63,1615010424,90
72,batemans bay,ZA,-33.0117,17.9442,16,94,3.6,1615010424,23
73,narsaq,US,41.7057,-70.2286,-1.92,40,3.6,1615010425,20
74,mar del plata,US,19.7297,-155.09,17.86,83,2.06,1615010425,90
75,anadyr,JM,17.8868,-77.5902,22.31,79,1.05,1615010425,46
76,luderitz,ES,28.6585,-17.9182,17,63,10.29,1615010425,40
77,sitka,KE,-1.2979,37.3471,20.96,61,2.76,1615010426,91
78,saldanha,AU,-20.7377,116.8463,32.46,39,6.36,1615010426,12
79,yarmouth,YE,15.1718,44.3244,15.61,32,6.33,1615010426,3
80,hilo,SB,-8.145,159.5921,26.04,82,1.29,1615010427,100
81,bull savanna,GL,64.1835,-51.7216,0,93,6.17,1615010427,20
82,los llanos de aridane,RU,71.9667,102.5,-25.42,85,5.22,1615010427,87
83,illoqqortoormiut,RE,-21.3667,55.6167,27,62,3.09,1615010428,0
84,kangundo,SO,9.4092,45.064,25.14,18,5.13,1615010428,61
85,karratha,YT,-12.9319,45.1483,30,74,6.17,1615010429,40
86,sayyan,US,33.8464,-118.0467,14.23,76,1.88,1615010429,1
87,buala,US,40.5982,-124.1573,4.59,100,1.83,1615010430,90
88,nuuk,PT,32.6667,-17.1,12.24,59,1.79,1615010430,59
89,khatanga,RU,47.1847,38.8462,3.33,100,1.79,1615010430,100
90,saint-joseph,TO,-21.2,-175.2,29,74,5.66,1615010431,75
91,nizhneyansk,AU,-28.7667,114.6,29,51,6.69,1615010431,1
92,odweyne,MN,47.9077,106.8832,-3,46,2,1615010283,0
93,chirongui,SR,4.75,-55.1667,23.96,86,3.5,1615010431,53
94,la palma,PE,-10.0681,-78.1522,23.29,71,2.45,1615010432,100
95,fortuna,US,22.0752,-159.319,19.37,88,10.29,1615010432,90
96,ponta do sol,NG,5.6167,7.8333,24.39,92,0.28,1615010433,43
97,novobessergenevka,US,43.3665,-124.2179,5.89,93,5.14,1615010235,90
98,vaini,PT,33.0833,-16.3333,16,72,9.77,1615010433,40
99,geraldton,CL,-35.3333,-72.4167,14.28,89,2.8,1615010156,82
100,ulaanbaatar,FI,66.5,25.7167,-9,92,4.12,1615010433,90
101,brokopondo,MV,-0.6,73.0833,28.98,59,1.21,1615010434,52
102,huarmey,BR,-24.7911,-50.0119,16.75,97,2.01,1615010434,72
103,kapaa,CA,70.4692,-68.5914,-29,76,7.2,1615010435,1
104,ohafia,US,41.1415,-73.3579,0.1,34,3.09,1615010398,90
105,coos bay,KZ,47.8043,67.7144,-4.26,95,2.63,1615010435,8
106,sorvag,AM,39.8317,44.7049,3,70,0.51,1615010436,0
107,camacha,PF,-9.8,-139.0333,26.39,73,6.59,1615010436,27
108,constitucion,ID,5.5577,95.3222,30.05,66,2.42,1615010436,38
109,rovaniemi,ID,1.1667,108.9667,28.75,77,6.3,1615010437,20
110,hithadhoo,CI,6.6451,-4.7048,24.76,86,2.57,1615010437,79
111,castro,PE,-5.5569,-80.8222,25.74,68,3.64,1615010438,97
112,warqla,CV,14.9215,-23.5087,21,73,9.26,1615010438,0
113,clyde river,PE,-13.7,-76.2167,22.43,83,4.12,1615010180,0
114,westport,CA,47.1666,-55.1483,-2.12,97,4.21,1615010439,91
115,zhezkazgan,US,64.8378,-147.7164,-16.63,72,0.91,1615010439,1
116,ararat,MN,50.2314,106.2078,-4.19,89,2.37,1615010440,18
117,atuona,CA,49.0331,-119.4524,10,57,4.63,1615010440,100
118,banda aceh,US,28.017,-97.5169,18.16,42,7.72,1615010440,20
119,pemangkat,US,36.2127,-121.126,6.05,88,1.1,1615010275,62
120,dimbokro,NZ,-45.4167,167.7167,11.26,76,1.41,1615010440,67
121,sentyabrskiy,RU,59.7035,30.7861,-8.02,86,1,1615010441,0
122,sechura,AU,-37.8333,140.7667,22,43,6.69,1615010389,66
123,praia,AU,-33.8667,121.9,21,83,5.66,1615010441,90
124,pisco,MU,-20.3428,57.7575,28.68,74,5.14,1615010441,40
125,marystown,EC,-0.7393,-90.3518,23.89,97,1.92,1615010441,29
126,fairbanks,CK,-21.2078,-159.775,28,78,5.66,1615010442,40
127,palabuhanratu,CA,55.1001,-105.2842,-1,74,6.17,1615010442,100
128,attawapiskat,MX,22.8909,-109.9124,18.42,55,3.6,1615010442,1
129,deh rawud,US,41.3712,-73.414,-1.29,37,4.12,1615010442,90
130,suhbaatar,SR,5.8833,-55.0833,25,92,0.89,1615010443,98
131,osoyoos,IQ,33.6416,42.8251,15.41,54,5.38,1615010443,0
132,khonuu,CL,-22.092,-70.1979,20.45,72,0.86,1615009819,2
133,san patricio,US,39.1834,-84.5333,0.69,55,4.12,1615010354,20
134,king city,BS,25.5,-76.65,21.96,77,8.32,1615010444,35
135,te anau,US,42.6001,-73.9662,-4.32,50,0.45,1615010222,85
136,nikolskoye,ID,-3.8004,102.2655,27.98,83,3.26,1615010444,20
137,mount gambier,NO,71.0357,27.8492,-6.16,95,3.68,1615010445,100
138,esperance,RU,54.0258,41.7119,-10.51,94,1.2,1615010445,0
139,bambous virieux,NZ,-46.1333,167.6833,16.67,59,3.13,1615010446,100
140,puerto ayora,HK,22.2855,114.1577,21.18,90,0.89,1615010407,88
141,avarua,US,35.3658,-120.8499,8.79,84,0.89,1615010446,63
142,la ronge,NP,28.2333,83.9833,25.84,17,3.58,1615010446,0
143,cabo san lucas,PG,-6.2167,155.6333,27.56,77,0.74,1615010447,100
144,bethel,US,39.1502,-123.2078,5.35,76,5.14,1615010192,90
145,nieuw amsterdam,US,43.2128,-75.4557,-8.28,63,2.57,1615010399,75
146,hit,SA,26.326,43.975,13,62,3.6,1615010447,20
147,tocopilla,JP,35.1333,140.3,15,94,2.57,1615010448,75
148,hamilton,RU,52.5178,99.825,-5.45,83,3.05,1615010448,99
149,dunmore town,FR,48.3833,-4.6167,3.04,65,4.12,1615010449,40
150,albany,OM,17.0151,54.0924,26,53,1.54,1615010449,0
151,bengkulu,KZ,49.6925,83.2892,-1,69,5,1615010449,66
152,amderma,ID,-0.7918,100.6593,30,70,2.06,1615010449,20
153,mehamn,VE,11.0333,-63.8628,24.49,87,7.47,1615010450,26
154,shatsk,BR,-5.1989,-35.4608,24,94,1.54,1615010450,40
155,tuatapere,GF,4.9333,-52.3333,25.66,94,1.54,1615010450,0
156,victoria,RU,58.0446,38.8426,-14.12,95,1.71,1615010451,69
157,morro bay,BR,-1.7656,-55.8661,23.2,94,1.77,1615010419,96
158,pokhara,RU,73.5069,80.5464,-33.31,86,5.73,1615010451,62
159,kieta,NO,70.3705,31.1107,-4.77,96,8.64,1615010452,100
160,ukiah,IN,14.7,76.8667,31.51,17,1.4,1615010452,0
161,tarhunah,RU,56.3491,78.3619,-1.7,98,9.45,1615010453,100
162,roma,GA,-1.5746,9.2618,25.34,89,3.03,1615010453,56
163,buraydah,MX,30.4833,-115.95,14.17,83,4.89,1615010453,0
164,katsuura,RU,71.6872,128.8694,-30.19,86,1.5,1615010187,37
165,orlik,NC,-22.6667,167.4833,27.41,78,23.53,1615010454,79
166,plouzane,VN,15.8794,108.335,31,62,3.09,1615010454,20
167,salalah,RU,64.2956,41.9211,-19,84,0.82,1615010454,90
168,serebryansk,CF,3.8678,17.9892,22.46,34,0.69,1615010454,49
169,solok,RU,68.0546,166.4372,-27.04,86,1.03,1615010455,100
170,la asuncion,RU,63.4453,120.3167,-18.16,92,2.74,1615010455,100
171,touros,MY,5.4112,100.3354,30.04,62,7.2,1615010404,20
172,cayenne,US,21.3469,-158.0858,20.92,78,4.12,1615010456,75
173,rybinsk,RU,61.15,149.6333,-25.57,81,1.97,1615010456,100
174,oriximina,UA,47.3078,32.8499,-0.13,97,9.83,1615010457,100
175,dikson,BR,-1.8333,-65.3667,22.46,94,0.88,1615010457,44
176,vardo,NZ,-46.1028,168.9436,16.67,59,3.13,1615010457,68
177,rayadrug,RU,66.7697,123.3711,-30.7,84,2.34,1615010458,18
178,severnoye,ES,43.4832,-8.2369,8.8,87,0.51,1615010458,75
179,omboue,CN,37.8086,120.7508,-0.64,85,8.46,1615010458,97
180,san quintin,EC,-0.9833,-77.8167,20.43,78,1.08,1615010459,73
181,tiksi,CG,-0.8725,14.8206,24.62,80,2.79,1615010459,100
182,vao,CO,12.5847,-81.7006,26,65,2.57,1615010171,20
183,hoi an,ZA,-33.918,25.5701,20,88,5.66,1615010459,0
184,lukovetskiy,GB,51.3813,1.3862,3.31,60,0.89,1615010457,72
185,mbaiki,AU,-28.65,153.6167,23.55,69,4.63,1615010460,90
186,barentsburg,RU,64.3833,-173.3,-26.71,87,2.51,1615010460,72
187,bilibino,ID,4.1363,96.1285,26.35,86,1.6,1615010460,99
188,verkhnevilyuysk,IS,63.8424,-22.4338,4,93,3.6,1615010460,90
189,georgetown,CM,3.65,10.7667,23.95,94,0.85,1615010460,84
190,makakilo city,YE,14.1951,43.3152,27.01,70,1.47,1615010460,7
191,ust-omchug,FR,41.591,9.2795,4.81,100,2.06,1615010460,0
192,bereznehuvate,CA,45.6169,-61.3485,-8.71,79,2.06,1615010461,20
193,maraa,US,45.5234,-122.6762,5.39,86,0.89,1615010238,100
194,gore,CA,66.1451,-65.7125,-16.12,88,0.64,1615010461,99
195,zhigansk,RU,62.55,155.55,-29.22,84,4.7,1615010461,100
196,ferrol,RU,59.3833,143.3,-23.28,82,6.86,1615010462,85
197,dengzhou,JP,26.5881,127.9761,22.35,64,4.63,1615010462,75
198,tena,BA,44.7228,17.3278,-1,93,3.09,1615010462,0
199,ewo,US,45.0205,-93.218,-1.95,74,1.46,1615010462,1
200,san andres,NZ,-46.2817,169.8464,14.44,84,0.89,1615010462,59
201,port elizabeth,NO,67.667,12.6934,-3,92,17.6,1615010462,100
202,margate,RU,60.3778,92.6267,-4.1,91,4.68,1615010463,91
203,byron bay,US,41.5286,-109.4662,1,51,4.63,1615010463,1
204,provideniya,BY,52.6333,29.7333,-4.32,95,4.05,1615010464,26
205,meulaboh,CN,36.6167,101.7667,4.83,55,2.18,1615010464,8
206,grindavik,CA,65.282,-126.8329,-22,84,1.54,1615010464,40
207,eseka,KZ,43.3,52.8,5.96,60,3.57,1615010464,0
208,vaitupu,AR,-43.3002,-65.1023,23.15,57,10.89,1615010462,0
209,zabid,US,36.4885,-79.7667,2.3,38,1.54,1615010464,1
210,porto-vecchio,AU,-34.7333,135.8667,20.22,60,4.97,1615010464,100
211,port hawkesbury,US,36.1867,-94.1288,1.94,100,2.62,1615010452,1
212,portland,AU,-29.7833,151.1167,26.11,22,1.34,1615010465,59
213,pangnirtung,CA,55.7435,-97.8558,-13,85,1.54,1615010465,1
214,dukat,MZ,-19.6094,34.7431,26.84,78,4.12,1615010445,75
215,afanasyevo,RU,57.7708,40.9344,-14,85,2,1615010465,90
216,okhotsk,DK,56.0045,8.1294,3.89,83,1.34,1615010465,69
217,nago,GR,36.8197,21.7049,9.38,87,2,1615010465,20
218,celinac,AU,-23.7,133.8833,36,9,3.6,1615010465,44
219,saint anthony,VE,10.0644,-72.545,24.59,70,2.59,1615010466,39
220,kaitangata,MV,6.6221,73.07,28.21,65,3.3,1615010466,2
221,sorland,RU,43.0645,44.7417,4,65,3,1615010466,34
222,teya,CA,49.7834,-74.8492,-14,78,3.6,1615010466,90
223,jabiru,BR,-28.0283,-54.3497,18.33,96,1.84,1615010466,0
224,green river,BR,-19.7625,-44.3139,22,83,2.57,1615010466,40
225,svetlogorsk,ZA,-26.9566,24.7284,23.54,31,1.3,1615010467,5
226,xining,FR,45.6285,-1.0281,2.38,75,3.09,1615010467,0
227,norman wells,US,36.6177,-121.9166,13.06,67,4.12,1615010467,20
228,zhanaozen,BR,-26.0736,-53.7253,16.78,97,0.83,1615010467,19
229,rawson,MN,45.7625,106.2708,1.49,62,5.57,1615010467,29
230,eden,IN,26.3856,73.5378,33.25,15,6.22,1615010468,0
231,port lincoln,EG,31.2156,29.9553,10,87,2.48,1615010453,0
232,springdale,RU,61.67,96.37,-5.07,93,3.98,1615010468,100
233,inverell,PY,-25.3333,-57.5333,23,94,1.03,1615010468,0
234,thompson,AU,-25.2986,152.8535,27.22,66,2.68,1615010468,17
235,dondo,BR,-22.9661,-42.0278,25.19,88,2.18,1615010469,95
236,kostroma,BH,26.2154,50.5832,21,52,10.8,1615010424,0
237,hvide sande,AU,-21.15,149.2,31,62,5.66,1615010469,2
238,methoni,US,29.9502,-91.7507,12.43,82,6.69,1615010469,90
239,alice springs,US,21.4447,-157.8378,20.71,83,6.69,1615010469,75
240,machiques,US,45.8404,-119.2895,7.86,61,5.66,1615010469,90
241,kulhudhuffushi,ZA,-27.0071,30.8132,18.02,88,1.05,1615010469,65
242,oktyabrskoye,MX,25.3833,-101.45,14,41,2.55,1615010431,1
243,chapais,CA,48.5168,-72.2324,-11.37,67,5.14,1615010470,90
244,girua,RU,57.2639,103.7519,-4.72,96,5.13,1615010470,100
245,esmeraldas,AU,-24.8667,113.6333,28,78,7.2,1615010470,0
246,vryburg,JP,33.2833,134.15,18,48,10.29,1615010290,75
247,royan,BR,-15.8631,-38.8828,23,83,2.06,1615010470,20
248,pacific grove,VN,18.6667,105.6667,27.76,72,3.27,1615010470,8
249,santo antonio do sudoeste,PG,-2.0226,147.2712,28.71,78,4.27,1615010471,93
250,mandalgovi,NC,-22.2763,166.4572,26.36,94,19.03,1615010181,90
251,tarudant,CO,1.1983,-70.1733,22.1,97,0.82,1615010471,77
252,pipar,US,37.4636,-122.4286,12.74,94,8.23,1615010471,90
253,alexandria,MU,-20.5167,57.5167,28,74,5.14,1615010471,40
254,baykit,NG,7.3833,8.5667,23.82,90,2.39,1615010471,12
255,san lorenzo,NG,9.5833,8.3,19.29,26,0.98,1615010471,18
256,yetholm,CO,10.5665,-75.325,26,83,4.12,1615010471,40
257,hervey bay,AR,-38.8759,-62.0736,15.42,66,5.33,1615010471,0
258,arraial do cabo,ID,-0.8833,131.25,27.68,78,4.38,1615010472,100
259,manama,RU,70.6333,147.9167,-21.41,91,9.32,1615010472,100
260,mackay,HN,15.4,-88.15,22,100,0.43,1615010472,0
261,iberia,EG,24.0934,32.907,16.23,35,5.37,1615010472,0
262,ahuimanu,NO,70.9963,24.6622,-2,100,6.17,1615010472,75
263,hermiston,CN,38.4167,77.2406,13.29,35,2.53,1615010472,0
264,piet retief,RU,51.5,156.5167,-5.08,97,7.03,1615010473,100
265,general cepeda,RU,69.3,139.9,-29.06,86,4.66,1615010473,100
266,roberval,ZA,-29.6641,22.7474,24.72,17,3.58,1615010473,0
267,rudnogorsk,AO,-6.1349,12.3689,27.06,86,3.36,1615010473,98
268,carnarvon,UA,44.8215,33.6045,9.44,69,1.79,1615010473,49
269,muroto,CM,4.2333,13.45,18.71,88,1.49,1615010474,23
270,belmonte,AU,-25.2406,130.9889,38,10,3.09,1615010474,39
271,vinh,IS,63.4427,-20.2734,5.96,85,0.54,1615010474,54
272,lorengau,RU,59.3322,66.0214,-8.39,96,4.19,1615010474,91
273,noumea,BR,-29.6842,-53.8069,20,100,1.33,1615010474,75
274,mitu,PF,-17.7333,-149.15,27.39,83,2.06,1615010474,75
275,half moon bay,RU,58.9564,126.2925,-15.6,85,0.22,1615010474,4
276,souillac,GB,50.1186,-5.5371,3.2,75,5.14,1615010474,75
277,yaan,MV,2.6708,72.8944,28.06,76,4.2,1615010475,45
278,kafanchan,GB,58.965,-3.296,2,80,6.17,1615010475,59
279,clemencia,RU,67.45,153.6833,-21.4,89,8.05,1615010475,100
280,punta alta,IN,30.6945,78.4932,21.14,18,2.46,1615010475,0
281,sorong,BB,13.2167,-59.5167,25,73,8.23,1615010475,20
282,chokurdakh,NG,12.7525,4.7077,22.46,18,4.44,1615010475,99
283,cofradia,CA,55.2999,-123.1698,1,93,2.06,1615010476,90
284,aswan,US,25.9018,-97.4975,17.09,88,1.54,1615010195,90
285,havoysund,EE,59.3723,24.9275,-4.48,86,5.14,1615010476,0
286,shache,TZ,-11.3667,38.4167,24.82,89,1.58,1615010476,100
287,ozernovskiy,SN,16.3333,-15,24.03,16,4.72,1615010476,53
288,bolungarvik,PG,-2.5744,150.7967,28.86,72,2.04,1615010476,84
289,deputatskiy,MA,31.6315,-8.0083,11,100,3.09,1615010476,75
290,prieska,CA,46.2198,-64.5411,-9.22,53,6.69,1615010477,75
291,soyo,ID,-6.8844,112.2051,29.06,69,4.08,1615010477,99
292,uhlove,BR,-26.3592,-52.8511,14.76,100,0.22,1615010477,13
293,doume,GL,60.1432,-45.2371,-0.61,93,6.03,1615010477,90
294,yulara,AR,-31.6333,-60.7,19.62,77,1.79,1615010477,0
295,vestmannaeyjar,VE,9.8601,-66.3814,22.18,89,1.93,1615010478,45
296,mortka,AU,-38.3833,142.4833,18.33,65,0.45,1615010478,59
297,karaul,JP,26.1247,127.6694,22.29,68,3.6,1615010478,75
298,santa maria,IN,9.2833,79.3,27.03,74,4.92,1615010478,27
299,tautira,JP,43.251,141.9043,-3.48,68,7.72,1615010478,75
300,tommot,NA,-22.116,14.2845,18.89,92,3.58,1615010478,16
301,penzance,RU,52.4201,136.4853,-15.8,87,2.84,1615010478,0
302,kudahuvadhoo,GL,61.994,-49.6678,-1.1,89,3.27,1615010478,100
303,stromness,RU,64.5401,40.5433,-19,84,1.24,1615010478,90
304,srednekolymsk,MY,5.4112,100.3354,30.04,62,7.2,1615010401,20
305,ginda,IR,35.9975,45.8853,3.96,74,0.6,1615010479,25
306,bathsheba,RU,57.6935,71.1665,-5.18,96,5.47,1615010479,100
307,sabla,JP,34.6851,135.8049,13.55,58,7.72,1615010479,75
308,mackenzie,AI,18.217,-63.0578,24.81,78,2.57,1615010479,20
309,brownsville,CN,18.8003,110.3967,27.67,66,4.88,1615010479,31
310,karla,GA,-0.7193,8.7815,26,94,2.06,1615010480,40
311,masuguru,US,36.1501,-86.2833,4.73,45,2.57,1615010480,40
312,saint-louis,LR,4.375,-7.7169,25.78,85,2.43,1615010480,99
313,kavieng,RU,69.4865,88.3972,-20.79,84,1.47,1615010480,63
314,marrakesh,MX,17.0667,-92.25,13.86,73,1.35,1615010480,0
315,shediac,GL,65.4167,-52.9,-1.37,97,0.84,1615010480,99
316,labuhan,NA,-28.55,16.4333,17.71,66,2.63,1615010481,0
317,sao lourenco do oeste,US,37.1041,-113.5841,13.84,19,3.6,1615010306,1
318,nanortalik,GN,8.5435,-9.471,21.48,94,1.23,1615010481,93
319,santa fe,CA,50.5834,-111.8851,4.54,56,6.17,1615010403,100
320,altagracia de orituco,UY,-34.4833,-54.3333,19.15,74,3.16,1615010481,100
321,warrnambool,US,32.7376,-101.951,4,75,1.54,1615010481,1
322,itoman,RU,56.9064,118.2631,-17.83,79,0.88,1615010481,69
323,rameswaram,MY,5.3473,115.7455,30,70,4.12,1615010481,20
324,mikasa,SD,14.2,24.6667,16.05,26,3.94,1615010481,4
325,henties bay,LY,29.1081,21.2869,14.33,35,6.95,1615010481,0
326,karamken,CN,47.9147,123.5031,-7.32,72,4.09,1615010296,9
327,imeni poliny osipenko,US,40.2526,-75.6774,-0.8,47,3.09,1615010482,90
328,paamiut,RU,63.8986,122.7617,-21.2,89,2.83,1615010482,90
329,arkhangelsk,TH,8.4509,98.5298,33.47,51,5.66,1615010482,20
330,george town,PK,31.6253,71.0657,27.57,15,2.28,1615010460,48
331,baneh,BR,-12.8231,-42.7306,20.81,68,0.18,1615010482,25
332,ust-ishim,MN,46.6806,113.2792,-9.5,89,9.34,1615010482,0
333,nara,BR,-20.5208,-43.6919,17.77,91,2.12,1615010483,100
334,the valley,RU,62.8487,34.8262,-14.94,95,2.14,1615010483,64
335,wanning,JP,31.4167,130.3167,17.89,72,1.03,1615010483,75
336,port-gentil,US,20.8947,-156.47,19.01,78,3.09,1615010483,40
337,wilson,AR,-34.6515,-59.4307,13.15,92,2.45,1615010483,0
338,harper,KZ,43.2,51.65,7.69,57,3.72,1615010483,0
339,talnakh,ID,-6.3424,106.1045,31.08,70,4.63,1615010483,40
340,ocosingo,RU,66.4167,112.4,-18.48,89,5.67,1615010484,100
341,maniitsoq,CN,28.4604,119.9103,14.06,84,1.29,1615010484,100
342,oranjemund,BR,-14.4739,-48.4597,20.89,93,1.05,1615010484,92
343,saint george,VU,-19.55,169.2667,28,83,13.89,1615010485,90
344,macenta,RU,66.845,32.3622,-11.35,95,4.02,1615010485,97
345,brooks,IR,33.5959,56.9244,13.25,39,4.17,1615010485,0
346,rocha,BR,-13.275,-50.1628,22.13,94,1.61,1615010448,99
347,lamesa,GL,68.7098,-52.8699,-12.37,95,4,1615010485,82
348,chara,NO,69.3143,16.1194,-4.36,86,13.38,1615010263,90
349,beaufort,CN,43.3047,124.3278,-6.38,70,1.37,1615010485,0
350,kutum,AU,-23.5333,148.1667,37,16,4.12,1615010426,49
351,awjilah,MG,-14.9003,50.2788,29.54,61,1.86,1615010486,71
352,gannan,RU,68.75,161.3,-24.29,90,2.87,1615010486,100
353,stowe,NA,-20.3667,14.9667,25.65,36,2.33,1615010486,49
354,kysyl-syr,JP,32.9833,132.9333,16.71,80,0.86,1615010303,77
355,phangnga,BR,-1.8283,-44.8683,24.22,91,1.25,1615010486,99
356,bhakkar,RU,69.3833,178.4167,-21.81,90,2.05,1615010486,100
357,boquira,CL,-36.6167,-71.8333,13,100,1.54,1615010419,7
358,baruun-urt,IS,64.8945,-23.7142,4.64,80,4.77,1615010486,96
359,ouro branco,RU,60.1367,32.5691,-10.54,96,2.91,1615010487,58
360,povenets,AU,-38.2667,141.9667,16.4,66,6.6,1615010487,83
361,kaseda,ZA,-26.25,28.4,17.21,72,6.17,1615010487,0
362,kahului,FR,43.0982,5.8847,9.82,90,0.89,1615010487,9
363,gumusyaka,AU,-31.4333,152.9167,23.05,57,1.34,1615010487,88
364,mercedes,ID,-4.9408,122.5276,24.81,91,0.92,1615010487,91
365,kuryk,PG,-2.6741,141.3028,29.5,66,5.81,1615010487,95
366,karauzyak,CO,3.8653,-67.9239,23.34,90,1.03,1615010488,80
367,karaton,ID,-8.345,113.6058,29.31,72,3.06,1615010488,36
368,udachnyy,CA,63.7506,-68.5145,-20,77,12.35,1615010488,75
369,lishui,ML,14.6667,-4,25.82,22,4.96,1615010488,67
370,niquelandia,TZ,-3.3333,36.8,19.44,88,4.12,1615010488,90
371,isangel,LK,6.1241,81.1185,32,62,5.14,1615010488,20
372,zelenoborskiy,BW,-21.2833,25.3667,24.15,47,4.21,1615010488,13
373,tabas,MW,-15.6746,35.1407,23,78,1.03,1615010489,20
374,sao miguel do araguaia,NC,-21.5667,165.4833,24.37,83,13.64,1615010489,100
375,aasiaat,BR,-21.4803,-56.1381,20.25,94,0.3,1615010489,14
376,andenes,AO,-15.1961,12.1522,23.99,81,1.57,1615010489,87
377,lishu,AU,-34.5833,150.8552,21.67,63,0.45,1615010489,10
378,emerald,PH,7.9986,124.2928,28.89,77,4.02,1615010489,82
379,antalaha,MX,21.2833,-89.6667,25,78,2.06,1615010286,20
380,cherskiy,NI,12.0483,-84.9936,17.11,93,2.65,1615010490,0
381,khorixas,KE,-1.8524,36.7768,20.38,61,4.99,1615010490,100
382,nakamura,RU,65.5833,-171,-24.35,86,2.84,1615010490,72
383,cururupu,NG,8.8486,7.8736,27,50,2.06,1615010490,0
384,leningradskiy,TR,41.1989,36.7219,12,37,3.09,1615010491,40
385,coihueco,US,37.7799,-121.978,12.93,67,1.54,1615010232,75
386,olafsvik,AU,-32.5,137.7667,31.11,32,6.17,1615010491,96
387,syasstroy,SE,63.2909,18.7153,-1,100,5.66,1615010491,20
388,codrington,US,21.4022,-157.7394,20.33,83,6.69,1615010491,75
389,springs,FO,62.2266,-6.589,6,87,4.63,1615010492,75
390,la seyne-sur-mer,US,42.2506,-75.833,-4.63,58,3.6,1615010492,90
391,port macquarie,NO,70.6634,23.6821,-2,100,6.17,1615010492,75
392,katobu,PG,-10.6167,150.6667,28.91,73,3.27,1615010492,72
393,vanimo,ZA,-28.4478,21.2561,22.88,25,3.24,1615010493,0
394,inirida,US,55.3422,-131.6461,4,87,3.09,1615010269,90
395,ambulu,IN,17.4842,73.1929,32.77,41,2.26,1615010493,0
396,iqaluit,NE,18.6853,12.9164,19.7,21,3.67,1615010493,50
397,mopti,AR,-34.6177,-68.3301,25.03,41,3.62,1615010493,0
398,poli,GW,11.2833,-15.8333,23.99,70,4.44,1615010493,11
399,hambantota,RU,60.3725,93.0408,-5.81,94,4.92,1615010493,93
400,orapa,CG,1.6136,16.0517,23.59,69,1.07,1615010494,42
401,samalaeulu,NC,-21.35,165.15,24.94,82,10.85,1615010494,100
402,saleaula,MU,-20.0064,57.6608,29.44,68,3.13,1615010494,100
403,chiradzulu,MX,30.5838,-111.101,17.78,32,0.45,1615010494,6
404,bourail,CL,-41.8697,-73.8203,10.67,93,0.51,1615010494,0
405,jardim,RU,61.95,159.2333,-27.85,77,1.19,1615010495,87
406,namibe,RU,58.6881,99.1844,-3.01,94,4.23,1615010495,100
407,flinders,SO,2.0371,45.3438,27.41,68,9.32,1615010495,19
408,marawi,PH,8.7561,125.7675,32.09,47,1.61,1615010495,79
409,progreso,GF,5.6592,-53.7767,25.51,83,5.25,1615010495,75
410,villa sandino,CA,50.2001,-66.3821,-6.34,63,5.66,1615010462,75
411,kajiado,BR,-24.7081,-47.5553,24.13,82,3.66,1615010495,100
412,tsienyane,MV,2.9167,73.5667,28.47,71,4.86,1615010496,23
413,nguiu,ZA,-34.0527,23.3716,21.53,60,1.05,1615010496,0
414,lavrentiya,BR,-17.7125,-39.2481,23.36,86,3.82,1615010496,99
415,keffi,RU,66.8333,70.8333,-15.78,93,2.34,1615010496,100
416,mendahara,KZ,47.9714,80.4392,-4.8,90,2.38,1615010497,20
417,carsamba,RU,49.9333,116.8667,-11.58,91,3.38,1615010497,61
418,san ramon,BR,-28.24,-48.6703,22,94,2.06,1615010497,20
419,port augusta,ES,42.5617,-2.356,7.67,81,2.06,1615010497,90
420,ornskoldsvik,MG,-25.1667,45.05,27.04,70,4.61,1615010497,19
421,kavant,US,37.3403,-95.2611,2.98,93,2.13,1615010497,1
422,kailua,MX,20.45,-101.5167,19,20,2.57,1615010497,1
423,klaksvik,ES,39.8885,4.2658,9,93,3.6,1615010497,0
424,broome,US,38.421,-121.4238,12.03,76,2.06,1615010497,1
425,hammerfest,PL,49.299,19.9489,-4.23,63,3.6,1615010498,40
426,samarai,ID,-5.6667,132.75,28.62,73,4.74,1615010498,85
427,upington,AR,-26.1775,-58.1781,22,94,1.54,1615010498,0
428,umzimvubu,AU,-20.7333,139.5,37,10,3.09,1615010458,0
429,ketchikan,RU,46.4856,135.8833,-17.41,91,5,1615010498,100
430,guhagar,RU,52.9035,50.9495,-8.46,95,3.42,1615010498,41
431,bilma,NZ,-45.75,170.5667,17.75,53,7.6,1615010498,40
432,san rafael,US,37.6624,-121.8747,12.42,67,1.54,1615010408,75
433,bubaque,ID,1.7427,98.7792,27.02,79,1.83,1615010499,85
434,severo-yeniseyskiy,BR,-21.6403,-41.0511,24.98,83,4.03,1615010499,100
435,ouesso,NG,10.6129,12.1946,19.86,26,3.65,1615010499,20
436,poya,NO,70.8578,29.0864,-5.48,93,5.88,1615010499,100
437,grand gaube,CI,5.1367,-5.0242,25.58,89,3.49,1615010499,63
438,caborca,IT,45.1667,10.7833,6.11,80,4.47,1615010499,95
439,ancud,SS,7.7029,27.9953,25.77,18,3.34,1615010500,45
440,evensk,CO,10.2511,-74.9146,26,83,4.12,1615010500,40
441,kodinsk,GB,55.4627,-4.6339,2.19,70,2.57,1615010500,75
442,mogadishu,BJ,6.4965,2.6036,29,84,5.66,1615010500,40
443,bayugan,TN,36.5418,9.6633,9,93,0.51,1615010501,40
444,mana,FI,62.2667,24.7,-9.32,86,4.63,1615010501,0
445,sept-iles,BR,-3.9839,-38.7273,26.97,83,2.57,1615010501,40
446,iguape,US,36.2081,-86.2911,4.75,45,3.09,1615010501,75
447,muli,BR,1,-52,21.58,98,0.86,1615010502,100
448,plettenberg bay,NG,12.2175,4.3792,23.46,19,4.38,1615010502,97
449,toliary,AR,-43.249,-65.3051,24.1,52,10.03,1615010502,2
450,caravelas,IN,16.7333,82.2167,30,48,3.09,1615010502,0
451,yar-sale,NO,67.0953,15.3878,-1.11,94,12.69,1615010502,100
452,ayagoz,ID,-1.2675,116.8289,31,74,7.2,1615010502,40
453,dauriya,EG,31.3525,27.2453,9,87,2.57,1615010503,0
454,imbituba,PH,20.4487,121.9702,25.76,79,7.33,1615010503,71
455,aras,AO,-14.9172,13.4925,17.22,80,1.23,1615010503,92
456,sumbawa,ML,22.6783,-3.9836,18.29,25,4.04,1615010503,0
457,beloha,CO,4.3133,-72.0816,27.48,62,2.31,1615010503,7
458,parsons,AR,-40.8135,-62.9967,16.99,64,7.03,1615010503,0
459,abasolo,RU,59.7,150.1667,-19.24,77,3.92,1615010503,56
460,mao,IN,19.8,85.85,35,26,3.09,1615010503,28
461,laguna,US,42.1584,-72.3287,-4.7,54,3.09,1615010503,40
462,zakopane,CA,48.7502,-78.9996,-14,78,3.09,1615010504,40
463,tual,TC,21.4612,-71.1419,25.35,72,1.18,1615010504,17
464,formosa,ZA,-28.783,32.0377,21.47,88,2.53,1615010504,81
465,mount isa,CN,36.652,107.7896,8.98,49,3.02,1615010504,100
466,vostok,US,61.5814,-149.4394,-8.49,93,1.33,1615010504,1
467,utevka,KR,37.5683,126.9778,9.34,46,6.17,1615010012,75
468,waitati,BR,-7.2597,-34.9075,25,100,1.03,1615010223,20
469,pleasanton,JP,35.7333,140.8333,17.73,72,2.57,1615010505,75
470,sibolga,RU,64.5667,143.2,-29.04,76,2.86,1615010505,100
471,rungata,SA,18.3851,42.4509,18.49,25,3.84,1615010505,0
472,sao joao da barra,BR,-0.75,-48.02,23.78,93,1.61,1615010505,100
473,biu,CA,47.6666,-52.7314,0.3,93,4.63,1615010506,90
474,berlevag,SL,7.5264,-12.505,25.1,92,1.7,1615010506,48
475,grand-lahou,PH,9.7392,118.7353,31,62,6.17,1615010506,40
476,mantua,CN,40.2833,97.2,8.65,44,5.05,1615010506,64
477,waw,CA,50.6996,-127.4199,4.39,93,5.14,1615010507,90
478,calamar,CA,54.3161,-130.3201,3.93,100,1.54,1615010407,90
479,ayr,KZ,46.844,74.9804,-2,86,6,1615010507,20
480,porto novo,PG,-3.6667,152.4333,29.2,68,2.34,1615010507,99
481,quballat,US,64.5011,-165.4064,-13.54,85,2.57,1615010507,90
482,keuruu,DE,48.6038,11.6257,-4.82,86,1.54,1615010507,0
483,papara,AU,-31.95,141.4333,27,19,3.6,1615010508,10
484,lebanon,AU,-41.45,147.1667,20,34,2.06,1615010508,10
485,amapa,AU,-35.5667,138.6167,21.67,55,3.71,1615010508,89
486,jega,CA,68.2191,-135.0107,-21.85,78,1.03,1615010508,11
487,trelew,BB,13.0667,-59.5333,25,73,8.23,1615010429,20
488,yanam,AR,-33.295,-66.3356,22.96,44,6.77,1615010509,0
489,rognan,RU,60.4667,166.1,-29.75,87,2.4,1615010509,17
490,balikpapan,LR,6.3005,-10.7969,25,94,2.2,1615010231,20
491,marsa matruh,US,46.1879,-123.8313,6.69,76,2.06,1615010302,20
492,basco,CA,60.7161,-135.0538,-4.22,80,5.14,1615010509,40
493,lubango,CA,50.2334,-63.5986,-6,86,8.75,1615010509,90
494,taoudenni,US,33.1284,-107.2528,10.91,35,1.28,1615010510,1
495,puerto gaitan,ID,-9.6567,120.2641,29.64,70,3.59,1615010510,3
496,viedma,CN,38.4953,102.1739,8.9,47,4.14,1615010510,37
497,arman,AU,-20.3167,118.5667,33,49,7.2,1615010510,8
498,puri,MU,-20.2078,57.7625,28.76,74,5.14,1615010511,40
499,palmer,BR,-17.3383,-49.9314,19.42,89,1.77,1615010511,93
500,bolshiye uki,US,33.194,-82.5271,10.33,66,2.06,1615010511,1
501,macamic,VE,7.7669,-72.225,20.69,68,0.56,1615010511,67
502,kamenskoye,US,44.9369,-91.3929,-2.2,74,2.4,1615010411,1
503,cockburn town,NG,12.1628,6.6614,21.41,20,5.48,1615010511,78
504,richards bay,CL,-45.5752,-72.0662,8.21,67,2.69,1615010512,20
505,yuancheng,MV,5.6667,73,28.37,68,3.62,1615010512,21
506,wasilla,US,41.5284,-87.4237,-3.29,93,1.49,1615010485,1
507,seoul,AR,-28.4696,-65.7852,15.71,89,0.45,1615010513,0
508,conde,RU,45.0503,136.6092,-9.19,77,6.26,1615010000,0
509,hasaki,CV,14.8961,-24.4956,21.07,78,3.31,1615010513,67
510,ust-nera,CH,46.3592,6.9759,3.22,81,2.06,1615010513,0
511,faya,PT,37.7167,-25.4333,10,87,2.06,1615010513,20
512,sao caetano de odivelas,VE,5.6639,-67.6236,24.24,88,1.17,1615010514,84
513,torbay,FR,50.1,1.8333,-0.68,80,3.6,1615010412,0
514,bonthe,RU,53.9353,139.9242,-23.11,85,4.36,1615010514,17
515,puerto princesa,NO,62.5833,6.1333,4.07,93,10.8,1615010514,75
516,samusu,RS,43.9275,21.37,0.77,100,1.54,1615010515,90
517,galgani,FR,45.6834,5.9224,4.86,75,6.17,1615010515,90
518,yumen,ID,-2.0833,101.3833,23.99,84,1.22,1615010515,72
519,port hardy,RU,65.8167,87.9833,-6.29,97,4.95,1615010515,100
520,prince rupert,BE,50.2342,5.5041,-4.69,77,1.34,1615010515,0
521,balkhash,RU,69.3497,87.7602,-22.32,85,2.06,1615010515,68
522,namatanai,GF,5.1552,-52.6478,25.6,94,1.54,1615010516,0
523,nome,GL,68.3065,-53.4641,-13.28,94,3.77,1615010516,100
524,wolnzach,BR,-19.0047,-57.6017,21.7,96,1.72,1615010516,98
525,bargal,ID,-8.1181,111.8935,29.48,68,3.01,1615010517,27
526,broken hill,IN,20.5667,78.8333,32,13,1.03,1615010517,37
527,launceston,ES,43.5167,-8.1528,8.73,87,0.51,1615010517,75
528,victor harbor,FR,47.9829,3.401,-2.22,72,4.91,1615010518,0
529,aklavik,RU,65.8522,44.24,-24.22,90,0.89,1615010518,43
530,oistins,GB,51.064,-0.3272,-0.51,93,1.03,1615010518,20
531,san luis,PG,-5.2246,145.7966,29.22,78,2.44,1615010518,61
532,tilichiki,ZA,-31.3968,26.3625,18.31,45,2.27,1615010519,4
533,monrovia,PG,-6.6024,147.8681,29.37,71,3.29,1615010519,100
534,astoria,MX,27.9769,-114.0611,15.4,78,6.22,1615010519,48
535,formoso do araguaia,RU,58.0728,93.0344,-3.09,95,4.7,1615010520,100
536,whitehorse,LY,29.0331,21.5482,14.12,36,6.93,1615010520,0
537,havre-saint-pierre,CA,51.226,-58.6502,-12.8,94,0.87,1615010521,57
538,truth or consequences,CN,27.6167,113.85,13.6,87,1.62,1615010521,100
539,waingapu,BR,-0.4139,-65.0192,22.87,94,0.55,1615010522,60
540,jinchang,SV,13.5928,-89.8275,24.6,65,3,1615010522,0
541,port hedland,CL,-29.9533,-71.3436,16,94,0.81,1615009996,0
542,quatre cocos,TZ,-9.7667,37.9333,22.81,93,1.53,1615010523,100
543,edeia,BR,-20.3297,-40.2925,24.7,78,5.66,1615010523,0
544,avera,NZ,-43.5333,172.6333,20.69,30,6.69,1615010100,32
545,san cristobal,CN,23.3687,104.28,24.12,25,7.14,1615010523,5
546,chippewa falls,RU,51.1,114.53,-14.03,88,0.39,1615010524,100
547,gusau,CN,34.3659,107.359,15.73,39,3.09,1615010524,100
548,coihaique,ZA,-33.963,22.4617,18,88,2.57,1615010524,0
549,ugoofaaru,LK,7.4167,81.8167,28.31,71,2.58,1615010524,95
550,griffith,TZ,-11.3,35.0333,21.28,86,0.58,1615010524,79
551,catamarca,BW,-24.6895,23.494,25.71,35,2.6,1615010525,59
552,terney,CA,50.1001,-91.917,-6,63,1.54,1615010525,1
553,sao filipe,GB,51.9419,1.2844,1.3,82,0.89,1615010525,75
554,luan,CN,28.9594,118.8686,12.2,85,4.79,1615010521,100
555,vila franca do campo,US,37.9514,-91.7713,1.51,60,1.54,1615010525,90
556,puerto ayacucho,BR,-11.0894,-43.1417,23.22,67,0.55,1615010339,1
557,abbeville,VN,17.4833,106.6,27.37,72,2.2,1615010525,29
558,mnogovershinnyy,IN,28.0667,95.3333,25.2,36,0.98,1615010525,87
559,roald,US,39.7555,-105.2211,3.45,41,1.54,1615010322,1
560,grand river south east,NA,-22.35,16.1333,25.44,35,2.98,1615010525,48
561,cuprija,,,,,,,,
562,kazalinsk,,,,,,,,
563,aix-les-bains,,,,,,,,
564,sungaipenuh,,,,,,,,
565,turukhansk,,,,,,,,
566,rendeux,,,,,,,,
567,kayerkan,,,,,,,,
568,kourou,,,,,,,,
569,kangaatsiaq,,,,,,,,
570,ladario,,,,,,,,
571,boyolangu,,,,,,,,
572,hinganghat,,,,,,,,
573,naron,,,,,,,,
574,joigny,,,,,,,,
575,mezen,,,,,,,,
576,horsham,,,,,,,,
577,madang,,,,,,,,
578,molteno,,,,,,,,
579,finschhafen,,,,,,,,
580,guerrero negro,,,,,,,,
581,strelka,,,,,,,,
582,jalu,,,,,,,,
583,saint-augustin,,,,,,,,
584,pingxiang,,,,,,,,
585,santa isabel do rio negro,,,,,,,,
586,acajutla,,,,,,,,
587,coquimbo,,,,,,,,
588,liwale,,,,,,,,
589,vila velha,,,,,,,,
590,christchurch,,,,,,,,
591,kaihua,,,,,,,,
592,aginskoye,,,,,,,,
593,guozhen,,,,,,,,
594,george,,,,,,,,
595,kalmunai,,,,,,,,
596,tubruq,,,,,,,,
597,tingi,,,,,,,,
598,khakhea,,,,,,,,
599,sioux lookout,,,,,,,,
600,harwich,,,,,,,,
601,quzhou,,,,,,,,
602,rolla,,,,,,,,
603,barra,,,,,,,,
604,dong hoi,,,,,,,,
605,pasighat,,,,,,,,
606,golden,,,,,,,,
607,otjimbingwe,,,,,,,,
